{
 "displayFieldName": "LOCATION_NAME",
 "fieldAliases": {
  "LOCATION_NAME": "Location Name",
  "WARD_CODE": "Ward Code",
  "SAO": "Address Line 1 (SAO)",
  "PAO": "Address Line 2 (PAO)",
  "STREET": "Street",
  "LOCALITY": "Locality",
  "TOWN": "Town",
  "POSTCODE": "Postcode",
  "UPRN": "UPRN"
 },
 "geometryType": "esriGeometryPoint",
 "spatialReference": {
  "wkid": 27700,
  "latestWkid": 27700
 },
 "fields": [
  {
   "name": "LOCATION_NAME",
   "type": "esriFieldTypeString",
   "alias": "Location Name",
   "length": 254
  },
  {
   "name": "WARD_CODE",
   "type": "esriFieldTypeString",
   "alias": "Ward Code",
   "length": 254
  },
  {
   "name": "SAO",
   "type": "esriFieldTypeString",
   "alias": "Address Line 1 (SAO)",
   "length": 254
  },
  {
   "name": "PAO",
   "type": "esriFieldTypeString",
   "alias": "Address Line 2 (PAO)",
   "length": 254
  },
  {
   "name": "STREET",
   "type": "esriFieldTypeString",
   "alias": "Street",
   "length": 100
  },
  {
   "name": "LOCALITY",
   "type": "esriFieldTypeString",
   "alias": "Locality",
   "length": 40
  },
  {
   "name": "TOWN",
   "type": "esriFieldTypeString",
   "alias": "Town",
   "length": 40
  },
  {
   "name": "POSTCODE",
   "type": "esriFieldTypeString",
   "alias": "Postcode",
   "length": 8
  },
  {
   "name": "UPRN",
   "type": "esriFieldTypeString",
   "alias": "UPRN",
   "length": 254
  }
 ],
 "features": [
  {
   "attributes": {
    "LOCATION_NAME": "Kingsdown Sports Centre",
    "WARD_CODE": "CTB",
    "SAO": null,
    "PAO": "The Ark",
    "STREET": "Portland Street",
    "LOCALITY": "Cotham",
    "TOWN": "Bristol",
    "POSTCODE": "BS2 8HL",
    "UPRN": "000000085625"
   },
   "geometry": {
    "x": 358515.96100000001,
    "y": 173892.99300000002
   }
  },
  {
   "attributes": {
    "LOCATION_NAME": "Scout Headquarters",
    "WARD_CODE": "KEA",
    "SAO": null,
    "PAO": "Land On The North Side Of (av50294)",
    "STREET": "St Martins Road",
    "LOCALITY": "Knowle",
    "TOWN": "Bristol",
    "POSTCODE": null,
    "UPRN": "000000244950"
   },
   "geometry": {
    "x": 360879,
    "y": 170462
   }
  },
  {
   "attributes": {
    "LOCATION_NAME": "St. Christopher's Parish Hall",
    "WARD_CODE": "WBC",
    "SAO": null,
    "PAO": "St Christopher Church",
    "STREET": "Hampstead Road",
    "LOCALITY": "Brislington",
    "TOWN": "Bristol",
    "POSTCODE": "BS4 3HJ",
    "UPRN": "000000278730"
   },
   "geometry": {
    "x": 361160,
    "y": 171109
   }
  },
  {
   "attributes": {
    "LOCATION_NAME": "Stapleton/Begbrook Community Association",
    "WARD_CODE": "FVA",
    "SAO": null,
    "PAO": "Stapleton And Begbrook Community Association",
    "STREET": "Frenchay Park Road",
    "LOCALITY": "Stapleton",
    "TOWN": "Bristol",
    "POSTCODE": "BS16 1HY",
    "UPRN": "000000026089"
   },
   "geometry": {
    "x": 362842,
    "y": 177031
   }
  },
  {
   "attributes": {
    "LOCATION_NAME": "Waring House",
    "WARD_CODE": "CTF",
    "SAO": null,
    "PAO": "Waring House",
    "STREET": "Redcliff Hill",
    "LOCALITY": "Redcliff",
    "TOWN": "Bristol",
    "POSTCODE": null,
    "UPRN": "000000113124"
   },
   "geometry": {
    "x": 358985,
    "y": 172124
   }
  },
  {
   "attributes": {
    "LOCATION_NAME": "Henbury Court Primary School",
    "WARD_CODE": "HYA",
    "SAO": null,
    "PAO": "Henbury Court Primary School",
    "STREET": "Trevelyan Walk",
    "LOCALITY": "Henbury",
    "TOWN": "Bristol",
    "POSTCODE": "BS13 7QB",
    "UPRN": "000000289525"
   },
   "geometry": {
    "x": 356504,
    "y": 179142
   }
  },
  {
   "attributes": {
    "LOCATION_NAME": "Summerhill Methodist Church Hall",
    "WARD_CODE": "WGE",
    "SAO": null,
    "PAO": "Summerhill Methodist Church",
    "STREET": "Air Balloon Road",
    "LOCALITY": "St George",
    "TOWN": "Bristol",
    "POSTCODE": "BS5 8LB",
    "UPRN": "000000095329"
   },
   "geometry": {
    "x": 363048,
    "y": 173490
   }
  },
  {
   "attributes": {
    "LOCATION_NAME": "Marksbury Road Library",
    "WARD_CODE": "BRD",
    "SAO": null,
    "PAO": "Marksbury Road Library",
    "STREET": "Marksbury Road",
    "LOCALITY": "Bedminster",
    "TOWN": "Bristol",
    "POSTCODE": "BS3 5LG",
    "UPRN": "000000136944"
   },
   "geometry": {
    "x": 358227,
    "y": 170695
   }
  },
  {
   "attributes": {
    "LOCATION_NAME": "Hillfields Library",
    "WARD_CODE": "HSC",
    "SAO": null,
    "PAO": "Hillfields Library",
    "STREET": "Summerleaze",
    "LOCALITY": "Speedwell",
    "TOWN": "Bristol",
    "POSTCODE": "BS16 4HL",
    "UPRN": "000000055729"
   },
   "geometry": {
    "x": 364225,
    "y": 175198
   }
  },
  {
   "attributes": {
    "LOCATION_NAME": "Holy Trinity Church Hall",
    "WARD_CODE": "EEA",
    "SAO": null,
    "PAO": "Holy Trinity Church",
    "STREET": "Park Road",
    "LOCALITY": "Stapleton",
    "TOWN": "Bristol",
    "POSTCODE": null,
    "UPRN": "000000278617"
   },
   "geometry": {
    "x": 361567,
    "y": 175984
   }
  },
  {
   "attributes": {
    "LOCATION_NAME": "Henleaze Library",
    "WARD_CODE": "HZC",
    "SAO": null,
    "PAO": "Henleaze Library",
    "STREET": "Northumbria Drive",
    "LOCALITY": "Henleaze",
    "TOWN": "Bristol",
    "POSTCODE": "BS9 4HP",
    "UPRN": "000000260189"
   },
   "geometry": {
    "x": 357612,
    "y": 175941
   }
  },
  {
   "attributes": {
    "LOCATION_NAME": "St Annes Board Mill Social Club",
    "WARD_CODE": "ENC",
    "SAO": null,
    "PAO": "St Annes Board Mill Social Club",
    "STREET": "Avonvale Road",
    "LOCALITY": null,
    "TOWN": "Bristol",
    "POSTCODE": "BS5 9RN",
    "UPRN": "000000101930"
   },
   "geometry": {
    "x": 361446,
    "y": 173121
   }
  },
  {
   "attributes": {
    "LOCATION_NAME": "Holy Cross R.C. V.A Primary School",
    "WARD_CODE": "SEC",
    "SAO": null,
    "PAO": "Holy Cross Catholic School",
    "STREET": "Dean Lane",
    "LOCALITY": "Southville",
    "TOWN": "Bristol",
    "POSTCODE": "BS3 1DB",
    "UPRN": "000000225617"
   },
   "geometry": {
    "x": 358401,
    "y": 171780
   }
  },
  {
   "attributes": {
    "LOCATION_NAME": "St. Ambrose Beehive Centre",
    "WARD_CODE": "WGA",
    "SAO": null,
    "PAO": "19A",
    "STREET": "Stretford Road",
    "LOCALITY": "St George",
    "TOWN": "Bristol",
    "POSTCODE": "BS5 7AW",
    "UPRN": "000000261461"
   },
   "geometry": {
    "x": 361829,
    "y": 173942
   }
  },
  {
   "attributes": {
    "LOCATION_NAME": "The Greenhouse",
    "WARD_CODE": "SED",
    "SAO": null,
    "PAO": "The Green House",
    "STREET": "Hereford Street",
    "LOCALITY": "Bedminster",
    "TOWN": "Bristol",
    "POSTCODE": "BS3 4NA",
    "UPRN": "000000123812"
   },
   "geometry": {
    "x": 358686,
    "y": 171414
   }
  },
  {
   "attributes": {
    "LOCATION_NAME": "Counterslip Baptist Church Hall",
    "WARD_CODE": "SWB",
    "SAO": null,
    "PAO": "Counterslip Baptist Church",
    "STREET": "Wells Road",
    "LOCALITY": "Totterdown",
    "TOWN": "Bristol",
    "POSTCODE": "BS14 9HT",
    "UPRN": "000000154968"
   },
   "geometry": {
    "x": 361158,
    "y": 168820
   }
  },
  {
   "attributes": {
    "LOCATION_NAME": "Totterdown Methodist Church",
    "WARD_CODE": "WLA/WLC",
    "SAO": null,
    "PAO": "7      Totterdown Methodist Church",
    "STREET": "Bushy Park",
    "LOCALITY": "Totterdown",
    "TOWN": "Bristol",
    "POSTCODE": "BS4 2EG",
    "UPRN": "000000122004"
   },
   "geometry": {
    "x": 359907,
    "y": 171495
   }
  },
  {
   "attributes": {
    "LOCATION_NAME": "St Bernadettes RC Parish Hall",
    "WARD_CODE": "HVC",
    "SAO": null,
    "PAO": "St Bernadette Rc Church",
    "STREET": "Wells Road",
    "LOCALITY": "Totterdown",
    "TOWN": "Bristol",
    "POSTCODE": "BS14 9HU",
    "UPRN": "000000155852"
   },
   "geometry": {
    "x": 361133,
    "y": 168530
   }
  },
  {
   "attributes": {
    "LOCATION_NAME": "Brunel Fitness Centre",
    "WARD_CODE": "HSD",
    "SAO": null,
    "PAO": "Bristol Brunel Academy",
    "STREET": "Speedwell Road",
    "LOCALITY": "Speedwell",
    "TOWN": "Bristol",
    "POSTCODE": "BS15 1NU",
    "UPRN": "000000072186"
   },
   "geometry": {
    "x": 363439,
    "y": 174467
   }
  },
  {
   "attributes": {
    "LOCATION_NAME": "Colston Primary School",
    "WARD_CODE": "CMC",
    "SAO": null,
    "PAO": "Colstons Primary School",
    "STREET": "Cotham Grove",
    "LOCALITY": "Cotham",
    "TOWN": "Bristol",
    "POSTCODE": "BS6 6AL",
    "UPRN": "000000278143"
   },
   "geometry": {
    "x": 358523,
    "y": 174331
   }
  },
  {
   "attributes": {
    "LOCATION_NAME": "Community Centre",
    "WARD_CODE": "AHA",
    "SAO": null,
    "PAO": "Avonmouth Community Centre",
    "STREET": "Avonmouth Road",
    "LOCALITY": "Avonmouth",
    "TOWN": "Bristol",
    "POSTCODE": "BS11 9EN",
    "UPRN": "000000275734"
   },
   "geometry": {
    "x": 351616,
    "y": 178138
   }
  },
  {
   "attributes": {
    "LOCATION_NAME": "Seventh Day Adventist Church Hall",
    "WARD_CODE": "HSE",
    "SAO": null,
    "PAO": "Seventh Day Adventist Church",
    "STREET": "Worcester Close",
    "LOCALITY": "Speedwell",
    "TOWN": "Bristol",
    "POSTCODE": "BS16 3PW",
    "UPRN": "000000252485"
   },
   "geometry": {
    "x": 363878,
    "y": 174750
   }
  },
  {
   "attributes": {
    "LOCATION_NAME": "Bishopsworth Children's Centre",
    "WARD_CODE": "BHC",
    "SAO": null,
    "PAO": "2",
    "STREET": "Lakemead Grove",
    "LOCALITY": "Bishopsworth",
    "TOWN": "Bristol",
    "POSTCODE": "BS13 8EA",
    "UPRN": "000000280710"
   },
   "geometry": {
    "x": 356648,
    "y": 168680
   }
  },
  {
   "attributes": {
    "LOCATION_NAME": "Salvation Army Hall",
    "WARD_CODE": "LHC",
    "SAO": null,
    "PAO": "Salvation Army",
    "STREET": "Hassell Drive",
    "LOCALITY": "St Philips",
    "TOWN": "Bristol",
    "POSTCODE": "BS2 0AN",
    "UPRN": "000000098492"
   },
   "geometry": {
    "x": 360370,
    "y": 173275
   }
  },
  {
   "attributes": {
    "LOCATION_NAME": "Brentry Primary School",
    "WARD_CODE": "HYD",
    "SAO": null,
    "PAO": "Brentry Primary School",
    "STREET": "Brentry Lane",
    "LOCALITY": "Brentry",
    "TOWN": "Bristol",
    "POSTCODE": "BS10 6RG",
    "UPRN": "000000001084"
   },
   "geometry": {
    "x": 357750,
    "y": 179511
   }
  },
  {
   "attributes": {
    "LOCATION_NAME": "Bristol South of Performing Arts (Formely White Hart Pub)",
    "WARD_CODE": "WBD",
    "SAO": null,
    "PAO": "Bristol South of Performing Arts (Formely White Hart Pub)",
    "STREET": "Brislington Hill",
    "LOCALITY": "Brislington",
    "TOWN": "Bristol",
    "POSTCODE": "BS4 5BD",
    "UPRN": "000000137471"
   },
   "geometry": {
    "x": 362014,
    "y": 170620
   }
  },
  {
   "attributes": {
    "LOCATION_NAME": "Redcliff Anglican Methodist Centre",
    "WARD_CODE": "LHF",
    "SAO": null,
    "PAO": "Redcliffe Methodist Church",
    "STREET": "Prewett Street",
    "LOCALITY": "Redcliff",
    "TOWN": "Bristol",
    "POSTCODE": "BS1 6PB",
    "UPRN": "000000112482"
   },
   "geometry": {
    "x": 359188,
    "y": 172218
   }
  },
  {
   "attributes": {
    "LOCATION_NAME": "Southmead Library",
    "WARD_CODE": "SOB",
    "SAO": null,
    "PAO": "Southmead Library",
    "STREET": "Greystoke Avenue",
    "LOCALITY": "Southmead",
    "TOWN": "Bristol",
    "POSTCODE": "BS10 6AS",
    "UPRN": "000000201220"
   },
   "geometry": {
    "x": 358184,
    "y": 178409
   }
  },
  {
   "attributes": {
    "LOCATION_NAME": "Redland Library",
    "WARD_CODE": "CEB",
    "SAO": null,
    "PAO": "Redland Library",
    "STREET": "Whiteladies Road",
    "LOCALITY": "Clifton",
    "TOWN": "Bristol",
    "POSTCODE": "BS8 2PY",
    "UPRN": "000000076586"
   },
   "geometry": {
    "x": 357663,
    "y": 174215
   }
  },
  {
   "attributes": {
    "LOCATION_NAME": "Hartcliffe Club for Young People",
    "WARD_CODE": "HEB",
    "SAO": null,
    "PAO": "Hartcliffe Club For Young People",
    "STREET": "Gatehouse Avenue",
    "LOCALITY": "Bishopsworth",
    "TOWN": "Bristol",
    "POSTCODE": "BS13 9AE",
    "UPRN": "000000253143"
   },
   "geometry": {
    "x": 357459,
    "y": 168180
   }
  },
  {
   "attributes": {
    "LOCATION_NAME": "Cairns Road Baptist Church Hall",
    "WARD_CODE": "RDA",
    "SAO": null,
    "PAO": "Cairns Road Baptist Church",
    "STREET": "Cairns Road",
    "LOCALITY": "Redland",
    "TOWN": "Bristol",
    "POSTCODE": "BS6 7TH",
    "UPRN": "000000045757"
   },
   "geometry": {
    "x": 358144,
    "y": 175904
   }
  },
  {
   "attributes": {
    "LOCATION_NAME": "Two Mile Hill Infants School",
    "WARD_CODE": "EGA",
    "SAO": null,
    "PAO": "Two Mile Hill Junior School",
    "STREET": "Kennard Road",
    "LOCALITY": "St George",
    "TOWN": "Bristol",
    "POSTCODE": "BS15 8AA",
    "UPRN": "000000088516"
   },
   "geometry": {
    "x": 363995,
    "y": 173723
   }
  },
  {
   "attributes": {
    "LOCATION_NAME": "Lawrence Weston Youth Centre",
    "WARD_CODE": "KNA",
    "SAO": null,
    "PAO": "Lawrence Weston Youth Centre",
    "STREET": "Long Cross",
    "LOCALITY": "Lawrence Weston",
    "TOWN": "Bristol",
    "POSTCODE": "BS11 0RX",
    "UPRN": "000000006458"
   },
   "geometry": {
    "x": 354724,
    "y": 178649
   }
  },
  {
   "attributes": {
    "LOCATION_NAME": "Fishponds Baptist Church Hall",
    "WARD_CODE": "FVD",
    "SAO": null,
    "PAO": "Fishponds Baptist Church",
    "STREET": "Downend Road",
    "LOCALITY": "Fishponds",
    "TOWN": "Bristol",
    "POSTCODE": "BS16 5AS",
    "UPRN": "000000041766"
   },
   "geometry": {
    "x": 363761,
    "y": 176098
   }
  },
  {
   "attributes": {
    "LOCATION_NAME": "Horfield C.E V.C Primary School",
    "WARD_CODE": "HDD",
    "SAO": null,
    "PAO": "Horfield Church Of England Vc Primary School",
    "STREET": "Bishop Manor Road",
    "LOCALITY": "Horfield",
    "TOWN": "Bristol",
    "POSTCODE": "BS10 5BD",
    "UPRN": "000000253132"
   },
   "geometry": {
    "x": 358794,
    "y": 177379
   }
  },
  {
   "attributes": {
    "LOCATION_NAME": "Whitehall Primary School",
    "WARD_CODE": "ENB",
    "SAO": null,
    "PAO": "Whitehall Primary School",
    "STREET": "Johnsons Road",
    "LOCALITY": "Easton",
    "TOWN": "Bristol",
    "POSTCODE": "BS5 9AT",
    "UPRN": "000000181149"
   },
   "geometry": {
    "x": 361527,
    "y": 174146
   }
  },
  {
   "attributes": {
    "LOCATION_NAME": "Rock Community Centre",
    "WARD_CODE": "KNB",
    "SAO": null,
    "PAO": "St Peters Church",
    "STREET": "Ridingleaze",
    "LOCALITY": "Lawrence Weston",
    "TOWN": "Bristol",
    "POSTCODE": "BS11 0QE",
    "UPRN": "000000008607"
   },
   "geometry": {
    "x": 354417,
    "y": 178397
   }
  },
  {
   "attributes": {
    "LOCATION_NAME": "St Peters Methodist Church",
    "WARD_CODE": "EBC",
    "SAO": null,
    "PAO": "St Peters Methodist Church",
    "STREET": "Allison Road",
    "LOCALITY": "Brislington",
    "TOWN": "Bristol",
    "POSTCODE": "BS4 4NZ",
    "UPRN": "000000282133"
   },
   "geometry": {
    "x": 362440,
    "y": 171367
   }
  },
  {
   "attributes": {
    "LOCATION_NAME": "St. Anne's Park Primary School",
    "WARD_CODE": "EBB",
    "SAO": null,
    "PAO": "St Annes Park Primary School",
    "STREET": "Lichfield Road",
    "LOCALITY": "St Annes",
    "TOWN": "Bristol",
    "POSTCODE": "BS4 4BJ",
    "UPRN": "000000111149"
   },
   "geometry": {
    "x": 362358,
    "y": 172458
   }
  },
  {
   "attributes": {
    "LOCATION_NAME": "Summerhill Junior School",
    "WARD_CODE": "WGC",
    "SAO": null,
    "PAO": "Summerhill Junior School",
    "STREET": "Plummers Hill",
    "LOCALITY": "St George",
    "TOWN": "Bristol",
    "POSTCODE": "BS5 7LE",
    "UPRN": "000000190823"
   },
   "geometry": {
    "x": 362453,
    "y": 173755
   }
  },
  {
   "attributes": {
    "LOCATION_NAME": "Wansdyke Primary School",
    "WARD_CODE": "WPD",
    "SAO": null,
    "PAO": "Wansdyke Primary School",
    "STREET": "School Close",
    "LOCALITY": "Whitchurch",
    "TOWN": "Bristol",
    "POSTCODE": "BS14 0DU",
    "UPRN": "000000165930"
   },
   "geometry": {
    "x": 359736,
    "y": 167686
   }
  },
  {
   "attributes": {
    "LOCATION_NAME": "Clifton Library",
    "WARD_CODE": "CNB",
    "SAO": null,
    "PAO": "Clifton Library",
    "STREET": "Princess Victoria Street",
    "LOCALITY": "Clifton",
    "TOWN": "Bristol",
    "POSTCODE": "BS8 4BX",
    "UPRN": "000000103836"
   },
   "geometry": {
    "x": 357044,
    "y": 173021
   }
  },
  {
   "attributes": {
    "LOCATION_NAME": "Whitchurch Folk House",
    "WARD_CODE": "WPE",
    "SAO": null,
    "PAO": "Whitchurch Folk Centre",
    "STREET": "East Dundry Road",
    "LOCALITY": "Whitchurch",
    "TOWN": "Bristol",
    "POSTCODE": "BS14 0LN",
    "UPRN": "000000199086"
   },
   "geometry": {
    "x": 360392,
    "y": 167478
   }
  },
  {
   "attributes": {
    "LOCATION_NAME": "3 The Cloisters",
    "WARD_CODE": "RDC",
    "SAO": "3",
    "PAO": "The Cloisters",
    "STREET": "Kersteman Road",
    "LOCALITY": "Redland",
    "TOWN": "Bristol",
    "POSTCODE": "BS6 7DJ",
    "UPRN": "000000303153"
   },
   "geometry": {
    "x": 358512.505,
    "y": 175085.11300000001
   }
  },
  {
   "attributes": {
    "LOCATION_NAME": "Clifton Library",
    "WARD_CODE": "CNC",
    "SAO": null,
    "PAO": "Clifton Library",
    "STREET": "Princess Victoria Street",
    "LOCALITY": "Clifton",
    "TOWN": "Bristol",
    "POSTCODE": "BS8 4BX",
    "UPRN": "000000103836"
   },
   "geometry": {
    "x": 357044,
    "y": 173021
   }
  },
  {
   "attributes": {
    "LOCATION_NAME": "Knowle Community Association Hall",
    "WARD_CODE": "KED",
    "SAO": null,
    "PAO": "Knowle Community Association Annexe",
    "STREET": "The Square",
    "LOCALITY": "Knowle",
    "TOWN": "Bristol",
    "POSTCODE": "BS4 2SS",
    "UPRN": "000000141073"
   },
   "geometry": {
    "x": 360388,
    "y": 170425
   }
  },
  {
   "attributes": {
    "LOCATION_NAME": "Knowle Community Association Hall",
    "WARD_CODE": "KEC",
    "SAO": null,
    "PAO": "Knowle Community Association Annexe",
    "STREET": "The Square",
    "LOCALITY": "Knowle",
    "TOWN": "Bristol",
    "POSTCODE": "BS4 2SS",
    "UPRN": "000000141073"
   },
   "geometry": {
    "x": 360388,
    "y": 170425
   }
  },
  {
   "attributes": {
    "LOCATION_NAME": "Hartcliffe Library @Symes Community Building",
    "WARD_CODE": "WPB",
    "SAO": null,
    "PAO": "Hartcliffe Library",
    "STREET": "Peterson Square",
    "LOCALITY": "Hartcliffe",
    "TOWN": "Bristol",
    "POSTCODE": "BS13 0EE",
    "UPRN": "000000169496"
   },
   "geometry": {
    "x": 358394,
    "y": 167469
   }
  },
  {
   "attributes": {
    "LOCATION_NAME": "Hartcliffe Library @Symes Community Building",
    "WARD_CODE": "WPA",
    "SAO": null,
    "PAO": "Hartcliffe Library",
    "STREET": "Peterson Square",
    "LOCALITY": "Hartcliffe",
    "TOWN": "Bristol",
    "POSTCODE": "BS13 0EE",
    "UPRN": "000000169496"
   },
   "geometry": {
    "x": 358394,
    "y": 167469
   }
  },
  {
   "attributes": {
    "LOCATION_NAME": "Filton Avenue Infants School",
    "WARD_CODE": "LZE",
    "SAO": null,
    "PAO": "Filton Avenue Infants School",
    "STREET": "Lockleaze Road",
    "LOCALITY": "Horfield",
    "TOWN": "Bristol",
    "POSTCODE": "BS7 9RP",
    "UPRN": "000000273657"
   },
   "geometry": {
    "x": 360059,
    "y": 177024
   }
  },
  {
   "attributes": {
    "LOCATION_NAME": "Speedwell Methodist Church",
    "WARD_CODE": "EGD",
    "SAO": null,
    "PAO": "Speedwell Methodist Church",
    "STREET": "Speedwell Road",
    "LOCALITY": "St George",
    "TOWN": "Bristol",
    "POSTCODE": "BS15 1ES",
    "UPRN": "000000280154"
   },
   "geometry": {
    "x": 363686,
    "y": 174304
   }
  },
  {
   "attributes": {
    "LOCATION_NAME": "Golden Hill Sports Pavilion",
    "WARD_CODE": "HZB",
    "SAO": null,
    "PAO": "Golden Hill Sports Pavilion",
    "STREET": "Lime Trees Road",
    "LOCALITY": "Henleaze",
    "TOWN": "Bristol",
    "POSTCODE": "BS6 7XW",
    "UPRN": "000000043424"
   },
   "geometry": {
    "x": 358652,
    "y": 176600
   }
  },
  {
   "attributes": {
    "LOCATION_NAME": "The Link",
    "WARD_CODE": "EEB",
    "SAO": null,
    "PAO": "All Saints Church",
    "STREET": "Grove Road",
    "LOCALITY": "Fishponds",
    "TOWN": "Bristol",
    "POSTCODE": "BS16 2BW",
    "UPRN": "000000302580"
   },
   "geometry": {
    "x": 362672,
    "y": 175679
   }
  },
  {
   "attributes": {
    "LOCATION_NAME": "Compass Point South Street Primary School",
    "WARD_CODE": "BRC",
    "SAO": null,
    "PAO": "South Street Primary School",
    "STREET": "South Street",
    "LOCALITY": "Bedminster",
    "TOWN": "Bristol",
    "POSTCODE": "BS3 3AU",
    "UPRN": "000000126428"
   },
   "geometry": {
    "x": 357992,
    "y": 171176
   }
  },
  {
   "attributes": {
    "LOCATION_NAME": "St John's Parish Hall",
    "WARD_CODE": "HSA",
    "SAO": null,
    "PAO": "St Johns Parish Hall",
    "STREET": "Lodge Causeway",
    "LOCALITY": "Fishponds",
    "TOWN": "Bristol",
    "POSTCODE": "BS16 3QG",
    "UPRN": "000000278825"
   },
   "geometry": {
    "x": 363252,
    "y": 175173
   }
  },
  {
   "attributes": {
    "LOCATION_NAME": "Bridge Farm Primary School\r\nBridge Farm Primary School\r\nBridge Farm Primary School",
    "WARD_CODE": "HVD",
    "SAO": null,
    "PAO": "Bridge Farm Primary School",
    "STREET": "East Dundry Road",
    "LOCALITY": "Whitchurch",
    "TOWN": "Bristol",
    "POSTCODE": "BS14 0LL",
    "UPRN": "000000253183"
   },
   "geometry": {
    "x": 360395,
    "y": 167559
   }
  },
  {
   "attributes": {
    "LOCATION_NAME": "Spike Island",
    "WARD_CODE": "CTE",
    "SAO": null,
    "PAO": "133",
    "STREET": "Cumberland Road",
    "LOCALITY": "Hotwells",
    "TOWN": "Bristol",
    "POSTCODE": "BS1 6UX",
    "UPRN": "000000260626"
   },
   "geometry": {
    "x": 357638,
    "y": 172192
   }
  },
  {
   "attributes": {
    "LOCATION_NAME": "Wesley Memorial Church Hall",
    "WARD_CODE": "EGB",
    "SAO": null,
    "PAO": "Wesley Memorial Church Hall",
    "STREET": "Bryants Hill",
    "LOCALITY": "St George",
    "TOWN": "Bristol",
    "POSTCODE": null,
    "UPRN": "000000278618"
   },
   "geometry": {
    "x": 363597,
    "y": 172818
   }
  },
  {
   "attributes": {
    "LOCATION_NAME": "Headley Park Community Centre",
    "WARD_CODE": "HEA",
    "SAO": null,
    "PAO": "Headley Park Community Association",
    "STREET": "Headley Park Avenue",
    "LOCALITY": "Bishopsworth",
    "TOWN": "Bristol",
    "POSTCODE": "BS13 7NW",
    "UPRN": "000000197943"
   },
   "geometry": {
    "x": 357634,
    "y": 168949
   }
  },
  {
   "attributes": {
    "LOCATION_NAME": "Bristol University Indoors Sports Centre",
    "WARD_CODE": "CTA",
    "SAO": null,
    "PAO": "Bristol University Indoors Sports Centre",
    "STREET": "Tyndall Avenue",
    "LOCALITY": "Clifton",
    "TOWN": "Bristol",
    "POSTCODE": "BS8 1TP",
    "UPRN": "000000281697"
   },
   "geometry": {
    "x": 358217,
    "y": 173531
   }
  },
  {
   "attributes": {
    "LOCATION_NAME": "Tyndale Baptist Church",
    "WARD_CODE": "CMD",
    "SAO": null,
    "PAO": "Tyndale Baptist Church",
    "STREET": "Whiteladies Road",
    "LOCALITY": "Clifton",
    "TOWN": "Bristol",
    "POSTCODE": "BS8 2QG",
    "UPRN": "000000075938"
   },
   "geometry": {
    "x": 357741,
    "y": 174238
   }
  },
  {
   "attributes": {
    "LOCATION_NAME": "St Pauls Church Rooms",
    "WARD_CODE": "CEC",
    "SAO": null,
    "PAO": "St Pauls Church",
    "STREET": "St Pauls Road",
    "LOCALITY": "Clifton",
    "TOWN": "Bristol",
    "POSTCODE": null,
    "UPRN": "000000278621"
   },
   "geometry": {
    "x": 357623,
    "y": 173523
   }
  },
  {
   "attributes": {
    "LOCATION_NAME": "Westbury-on-Trym Methodist Hall",
    "WARD_CODE": "WTB",
    "SAO": null,
    "PAO": "Westbury On Trym Methodist Church",
    "STREET": "Westbury Hill",
    "LOCALITY": "Westbury",
    "TOWN": "Bristol",
    "POSTCODE": "BS9 3AA",
    "UPRN": "000000021338"
   },
   "geometry": {
    "x": 357254,
    "y": 177271
   }
  },
  {
   "attributes": {
    "LOCATION_NAME": "Sturminster Road Community Association Hall",
    "WARD_CODE": "SWC",
    "SAO": null,
    "PAO": "Sturminster Area Community Centre",
    "STREET": "Sturminster Road",
    "LOCALITY": "Stockwood",
    "TOWN": "Bristol",
    "POSTCODE": "BS14 8AU",
    "UPRN": "000000152726"
   },
   "geometry": {
    "x": 361581,
    "y": 169077
   }
  },
  {
   "attributes": {
    "LOCATION_NAME": "Bishop Road Primary School",
    "WARD_CODE": "BSA",
    "SAO": null,
    "PAO": "Bishop Road Primary School",
    "STREET": "Bishop Road",
    "LOCALITY": "Bishopston",
    "TOWN": "Bristol",
    "POSTCODE": "BS7 8LS",
    "UPRN": "000000047148"
   },
   "geometry": {
    "x": 358866,
    "y": 175809
   }
  },
  {
   "attributes": {
    "LOCATION_NAME": "Sea Mills Library",
    "WARD_CODE": "KNC",
    "SAO": null,
    "PAO": "Sea Mills Library",
    "STREET": "Sylvan Way",
    "LOCALITY": "Sea Mills",
    "TOWN": "Bristol",
    "POSTCODE": "BS9 2NA",
    "UPRN": "000000023541"
   },
   "geometry": {
    "x": 355020,
    "y": 177143
   }
  },
  {
   "attributes": {
    "LOCATION_NAME": "Rose Green Centre",
    "WARD_CODE": "EED",
    "SAO": null,
    "PAO": "The Rose Green Centre",
    "STREET": "Gordon Road",
    "LOCALITY": "Speedwell",
    "TOWN": "Bristol",
    "POSTCODE": "BS5 7DR",
    "UPRN": "000000261487"
   },
   "geometry": {
    "x": 361943,
    "y": 174389
   }
  },
  {
   "attributes": {
    "LOCATION_NAME": "Stow House",
    "WARD_CODE": "AHF",
    "SAO": null,
    "PAO": "Stow House",
    "STREET": "Nibley Road",
    "LOCALITY": "Shirehampton",
    "TOWN": "Bristol",
    "POSTCODE": "BS11 9UY",
    "UPRN": "000000038772"
   },
   "geometry": {
    "x": 353401,
    "y": 176273
   }
  },
  {
   "attributes": {
    "LOCATION_NAME": "The Scout Hall, Westbury Baptist Car Park",
    "WARD_CODE": "WTC",
    "SAO": null,
    "PAO": "The Scouts Hall",
    "STREET": "Brainsfield",
    "LOCALITY": "Westbury",
    "TOWN": "Bristol",
    "POSTCODE": "BS9 3TD",
    "UPRN": "000000278729"
   },
   "geometry": {
    "x": 356782,
    "y": 176578
   }
  },
  {
   "attributes": {
    "LOCATION_NAME": "Ashton Vale Community Centre",
    "WARD_CODE": "BRA",
    "SAO": null,
    "PAO": "Ashton Vale Community Centre",
    "STREET": "Risdale Road",
    "LOCALITY": "Ashton",
    "TOWN": "Bristol",
    "POSTCODE": "BS3 2QY",
    "UPRN": "000000140041"
   },
   "geometry": {
    "x": 356613,
    "y": 170502
   }
  },
  {
   "attributes": {
    "LOCATION_NAME": "Greenfield Primary School",
    "WARD_CODE": "FDC",
    "SAO": null,
    "PAO": "Greenfield Primary School",
    "STREET": "Novers Lane",
    "LOCALITY": "Knowle",
    "TOWN": "Bristol",
    "POSTCODE": "BS4 1QW",
    "UPRN": "000000239367"
   },
   "geometry": {
    "x": 358459,
    "y": 169319
   }
  },
  {
   "attributes": {
    "LOCATION_NAME": "Filwood Library",
    "WARD_CODE": "FDD",
    "SAO": null,
    "PAO": "Filwood Library",
    "STREET": "Filwood Broadway",
    "LOCALITY": "Knowle",
    "TOWN": "Bristol",
    "POSTCODE": "BS4 1JN",
    "UPRN": "000000147115"
   },
   "geometry": {
    "x": 359364,
    "y": 169562
   }
  },
  {
   "attributes": {
    "LOCATION_NAME": "The Elmgrove Centre",
    "WARD_CODE": "CMB",
    "SAO": null,
    "PAO": "The Elmgrove Centre",
    "STREET": "Elmgrove Road",
    "LOCALITY": "Cotham",
    "TOWN": "Bristol",
    "POSTCODE": "BS6 6AH",
    "UPRN": "000000069023"
   },
   "geometry": {
    "x": 358670,
    "y": 174513
   }
  },
  {
   "attributes": {
    "LOCATION_NAME": "Jim O'Neil House",
    "WARD_CODE": "AHE",
    "SAO": null,
    "PAO": "Jim O Neil House",
    "STREET": "Kilminster Road",
    "LOCALITY": "Shirehampton",
    "TOWN": "Bristol",
    "POSTCODE": "BS11 9ZE",
    "UPRN": "000000188363"
   },
   "geometry": {
    "x": 352754,
    "y": 177069
   }
  },
  {
   "attributes": {
    "LOCATION_NAME": "Shirehampton Hall",
    "WARD_CODE": "AHD",
    "SAO": null,
    "PAO": "32      Shirehampton Hall",
    "STREET": "Station Road",
    "LOCALITY": "Shirehampton",
    "TOWN": "Bristol",
    "POSTCODE": "BS11 9TX",
    "UPRN": "000000032995"
   },
   "geometry": {
    "x": 353201,
    "y": 176656
   }
  },
  {
   "attributes": {
    "LOCATION_NAME": "Victoria Park Baptist Church",
    "WARD_CODE": "WLB",
    "SAO": null,
    "PAO": "Victoria Park Baptist Church",
    "STREET": "Sylvia Avenue",
    "LOCALITY": "Bedminster",
    "TOWN": "Bristol",
    "POSTCODE": "BS3 5DA",
    "UPRN": "000000130452"
   },
   "geometry": {
    "x": 359526,
    "y": 171111
   }
  },
  {
   "attributes": {
    "LOCATION_NAME": "South Bristol Sports Centre",
    "WARD_CODE": "SWA",
    "SAO": null,
    "PAO": "South Bristol Sports Centre",
    "STREET": "West Town Lane",
    "LOCALITY": "Hengrove",
    "TOWN": "Bristol",
    "POSTCODE": "BS4 5DQ",
    "UPRN": "000000303531"
   },
   "geometry": {
    "x": 361158,
    "y": 169893
   }
  },
  {
   "attributes": {
    "LOCATION_NAME": "New Oak Primary School",
    "WARD_CODE": "HVA",
    "SAO": null,
    "PAO": "New Oak Primary School",
    "STREET": "Walsh Avenue",
    "LOCALITY": "Hengrove",
    "TOWN": "Bristol",
    "POSTCODE": "BS14 9SN",
    "UPRN": "000000151356"
   },
   "geometry": {
    "x": 360475,
    "y": 169235
   }
  },
  {
   "attributes": {
    "LOCATION_NAME": "Withywood Centre",
    "WARD_CODE": "BHD",
    "SAO": null,
    "PAO": "Withywood Centre",
    "STREET": "Queens Road",
    "LOCALITY": "Bishopsworth",
    "TOWN": "Bristol",
    "POSTCODE": "BS13 8QA",
    "UPRN": "000000307641"
   },
   "geometry": {
    "x": 356841,
    "y": 167822
   }
  },
  {
   "attributes": {
    "LOCATION_NAME": "Stoke Lodge Centre",
    "WARD_CODE": "SBA",
    "SAO": null,
    "PAO": "Stoke Lodge",
    "STREET": "Shirehampton Road",
    "LOCALITY": "Stoke Bishop",
    "TOWN": "Bristol",
    "POSTCODE": "BS9 1BN",
    "UPRN": "000000035476"
   },
   "geometry": {
    "x": 355891,
    "y": 176487
   }
  },
  {
   "attributes": {
    "LOCATION_NAME": "Easton Community Centre",
    "WARD_CODE": "END",
    "SAO": null,
    "PAO": "Easton Community Centre",
    "STREET": "Kilburn Road",
    "LOCALITY": "Easton",
    "TOWN": "Bristol",
    "POSTCODE": "BS5 6AW",
    "UPRN": "000000088155"
   },
   "geometry": {
    "x": 361003,
    "y": 173795
   }
  },
  {
   "attributes": {
    "LOCATION_NAME": "Bridge Learning Campus",
    "WARD_CODE": "WPC",
    "SAO": null,
    "PAO": "Bridge Learning Campus",
    "STREET": "William Jessop Way",
    "LOCALITY": "Hartcliffe",
    "TOWN": "Bristol",
    "POSTCODE": "BS16 0RL",
    "UPRN": null
   },
   "geometry": {
    "x": 359311.33500000002,
    "y": 167710.82299999997
   }
  },
  {
   "attributes": {
    "LOCATION_NAME": "Redcatch Community Association Hall",
    "WARD_CODE": "KEB",
    "SAO": null,
    "PAO": "Redcatch Community Centre",
    "STREET": "Redcatch Road",
    "LOCALITY": "Knowle",
    "TOWN": "Bristol",
    "POSTCODE": "BS4 2EP",
    "UPRN": "000000134783"
   },
   "geometry": {
    "x": 360431,
    "y": 170838
   }
  },
  {
   "attributes": {
    "LOCATION_NAME": "Eastville Library",
    "WARD_CODE": "LZD",
    "SAO": null,
    "PAO": "Eastville Library",
    "STREET": "Muller Road",
    "LOCALITY": "Horfield",
    "TOWN": "Bristol",
    "POSTCODE": "BS5 6XP",
    "UPRN": "000000181977"
   },
   "geometry": {
    "x": 360574,
    "y": 175454
   }
  },
  {
   "attributes": {
    "LOCATION_NAME": "Stockwood Library",
    "WARD_CODE": "SWF",
    "SAO": null,
    "PAO": "Stockwood Library",
    "STREET": "Stockwood Road",
    "LOCALITY": "Stockwood",
    "TOWN": "Bristol",
    "POSTCODE": "BS14 8PL",
    "UPRN": "000000159907"
   },
   "geometry": {
    "x": 362048,
    "y": 168329
   }
  },
  {
   "attributes": {
    "LOCATION_NAME": "Westbury-on-Trym Methodist Hall",
    "WARD_CODE": "WTD",
    "SAO": null,
    "PAO": "Westbury On Trym Methodist Church",
    "STREET": "Westbury Hill",
    "LOCALITY": "Westbury",
    "TOWN": "Bristol",
    "POSTCODE": "BS9 3AA",
    "UPRN": "000000021338"
   },
   "geometry": {
    "x": 357254,
    "y": 177271
   }
  },
  {
   "attributes": {
    "LOCATION_NAME": "Scout Hall, Tranmere Avenue",
    "WARD_CODE": "HYC",
    "SAO": null,
    "PAO": "Scout Hut",
    "STREET": "Tranmere Avenue",
    "LOCALITY": null,
    "TOWN": "Bristol",
    "POSTCODE": null,
    "UPRN": "000000342967"
   },
   "geometry": {
    "x": 357405,
    "y": 179504
   }
  },
  {
   "attributes": {
    "LOCATION_NAME": "St Bartholomew's Church Lower Hall\r\ndsaSt Bartholomew's Church Lower Hall\r\nSt Bartholomew's Church Lower Hall\r\nSt Bartholomew's Church Lower Hall\r\nSt Bartholomew's Church Lower Hall",
    "WARD_CODE": "RDD",
    "SAO": null,
    "PAO": "St Andrews With St Bartholomews Church",
    "STREET": "Maurice Road",
    "LOCALITY": "Montpelier",
    "TOWN": "Bristol",
    "POSTCODE": "BS6 5BT",
    "UPRN": "000000059886"
   },
   "geometry": {
    "x": 359476,
    "y": 175032
   }
  },
  {
   "attributes": {
    "LOCATION_NAME": "Jubilee Hall",
    "WARD_CODE": "WLE",
    "SAO": null,
    "PAO": "Jubilee Hall",
    "STREET": "Wedmore Vale",
    "LOCALITY": "BS3 5HX",
    "TOWN": "Bristol",
    "POSTCODE": "BS3 5HX",
    "UPRN": "000000136368"
   },
   "geometry": {
    "x": 359256,
    "y": 170697
   }
  },
  {
   "attributes": {
    "LOCATION_NAME": "Ashley Down Primary School, Brunel Field",
    "WARD_CODE": "BSC",
    "SAO": null,
    "PAO": "Ashley Down Primary School",
    "STREET": "Arthur Milton Street",
    "LOCALITY": "Bishopston",
    "TOWN": "Bristol",
    "POSTCODE": "BS7 9JT",
    "UPRN": "000000342038"
   },
   "geometry": {
    "x": 359600.91499999998,
    "y": 175634.84399999998
   }
  },
  {
   "attributes": {
    "LOCATION_NAME": "St Annes Infants School",
    "WARD_CODE": "EBA",
    "SAO": null,
    "PAO": "St Annes Infants School",
    "STREET": "Bloomfield Road",
    "LOCALITY": "St Annes",
    "TOWN": "Bristol",
    "POSTCODE": "BS4 3QT",
    "UPRN": "000000114089"
   },
   "geometry": {
    "x": 361851,
    "y": 172182
   }
  },
  {
   "attributes": {
    "LOCATION_NAME": "South Bristol Methodist Church Hall",
    "WARD_CODE": "BRE",
    "SAO": null,
    "PAO": "South Bristol Methodist Church",
    "STREET": "British Road",
    "LOCALITY": null,
    "TOWN": "Bristol",
    "POSTCODE": "BS3 3BW",
    "UPRN": "000000123434"
   },
   "geometry": {
    "x": 358217,
    "y": 171432
   }
  },
  {
   "attributes": {
    "LOCATION_NAME": "Holy Trinity Parish Hall",
    "WARD_CODE": "CNE",
    "SAO": null,
    "PAO": "Holy Trinity Church",
    "STREET": "Hotwell Road",
    "LOCALITY": "Hotwells",
    "TOWN": "Bristol",
    "POSTCODE": "BS8 4ST",
    "UPRN": "000000110219"
   },
   "geometry": {
    "x": 357165,
    "y": 172577
   }
  },
  {
   "attributes": {
    "LOCATION_NAME": "Friends Meeting House",
    "WARD_CODE": "CMA",
    "SAO": null,
    "PAO": "Friends Meeting House",
    "STREET": "Hampton Road",
    "LOCALITY": "Redland",
    "TOWN": "Bristol",
    "POSTCODE": "BS6 6JE",
    "UPRN": "000000067302"
   },
   "geometry": {
    "x": 357825,
    "y": 174593
   }
  },
  {
   "attributes": {
    "LOCATION_NAME": "St. Barnabas C.E  V.C.  Primary School",
    "WARD_CODE": "AYB",
    "SAO": null,
    "PAO": "St Barnabas C E V C Primary School",
    "STREET": "Albany Road",
    "LOCALITY": "Montpelier",
    "TOWN": "Bristol",
    "POSTCODE": "BS6 5LQ",
    "UPRN": "000000071853"
   },
   "geometry": {
    "x": 359743,
    "y": 174393
   }
  },
  {
   "attributes": {
    "LOCATION_NAME": "Stockwood Library",
    "WARD_CODE": "SWE",
    "SAO": null,
    "PAO": "Stockwood Library",
    "STREET": "Stockwood Road",
    "LOCALITY": "Stockwood",
    "TOWN": "Bristol",
    "POSTCODE": "BS14 8PL",
    "UPRN": "000000159907"
   },
   "geometry": {
    "x": 362048,
    "y": 168329
   }
  },
  {
   "attributes": {
    "LOCATION_NAME": "St Pauls Community Sports Academy",
    "WARD_CODE": "AYE",
    "SAO": null,
    "PAO": "St Pauls Community Sports Academy",
    "STREET": "Newfoundland Road",
    "LOCALITY": "St Pauls",
    "TOWN": "Bristol",
    "POSTCODE": "BS2 9NH",
    "UPRN": "000000295524"
   },
   "geometry": {
    "x": 359769,
    "y": 173870
   }
  },
  {
   "attributes": {
    "LOCATION_NAME": "The Southville Centre",
    "WARD_CODE": "SEB",
    "SAO": null,
    "PAO": "The Southville Centre",
    "STREET": "Beauley Road",
    "LOCALITY": "Southville",
    "TOWN": "Bristol",
    "POSTCODE": "BS3 1QJ",
    "UPRN": "000000116731"
   },
   "geometry": {
    "x": 358012,
    "y": 171820
   }
  },
  {
   "attributes": {
    "LOCATION_NAME": "Redland Parish Church Hall",
    "WARD_CODE": "RDB",
    "SAO": null,
    "PAO": "Redland Parish Church Hall",
    "STREET": "Redland Green Road",
    "LOCALITY": "Redland",
    "TOWN": "Bristol",
    "POSTCODE": "BS6 7HE",
    "UPRN": "000000059910"
   },
   "geometry": {
    "x": 357876,
    "y": 175010
   }
  },
  {
   "attributes": {
    "LOCATION_NAME": "Reading Room, Churchill Hall",
    "WARD_CODE": "SBC",
    "SAO": null,
    "PAO": "Churchill Hall",
    "STREET": "Stoke Park Road",
    "LOCALITY": "Stoke Bishop",
    "TOWN": "Bristol",
    "POSTCODE": "BS9 1JG",
    "UPRN": "000000051366"
   },
   "geometry": {
    "x": 356539,
    "y": 175527
   }
  },
  {
   "attributes": {
    "LOCATION_NAME": "Holymead Junior School",
    "WARD_CODE": "WBB",
    "SAO": null,
    "PAO": "Holymead Junior School",
    "STREET": "Wick Road",
    "LOCALITY": "Brislington",
    "TOWN": "Bristol",
    "POSTCODE": "BS4 4HB",
    "UPRN": "000000129229"
   },
   "geometry": {
    "x": 361714,
    "y": 171127
   }
  },
  {
   "attributes": {
    "LOCATION_NAME": "Henbury Library",
    "WARD_CODE": "HYB",
    "SAO": null,
    "PAO": "Henbury Library",
    "STREET": "Crow Lane",
    "LOCALITY": "Henbury",
    "TOWN": "Bristol",
    "POSTCODE": "BS10 7DR",
    "UPRN": "000000003424"
   },
   "geometry": {
    "x": 357107,
    "y": 179160
   }
  },
  {
   "attributes": {
    "LOCATION_NAME": "St Annes Junior School",
    "WARD_CODE": "WBA",
    "SAO": null,
    "PAO": "St Annes Junior School",
    "STREET": "Langton Court Road",
    "LOCALITY": "Brislington",
    "TOWN": "Bristol",
    "POSTCODE": "BS4 4 EJ",
    "UPRN": "000000112477"
   },
   "geometry": {
    "x": 361828,
    "y": 172221
   }
  },
  {
   "attributes": {
    "LOCATION_NAME": "Stanley Room, St. Luke's Church",
    "WARD_CODE": "LHE",
    "SAO": null,
    "PAO": "St Lukes Church",
    "STREET": "Church Street",
    "LOCALITY": "Redfield",
    "TOWN": "Bristol",
    "POSTCODE": "BS5 9RG",
    "UPRN": "000000237055"
   },
   "geometry": {
    "x": 360913,
    "y": 172981
   }
  },
  {
   "attributes": {
    "LOCATION_NAME": "Stoke Bishop Hall",
    "WARD_CODE": "SBB",
    "SAO": null,
    "PAO": "Stoke Hill Hall",
    "STREET": "Stoke Hill",
    "LOCALITY": "Stoke Bishop",
    "TOWN": "Bristol",
    "POSTCODE": "BS9 1EX",
    "UPRN": "000000278727"
   },
   "geometry": {
    "x": 356067,
    "y": 175838
   }
  },
  {
   "attributes": {
    "LOCATION_NAME": "Fonthill Centre",
    "WARD_CODE": "SOD",
    "SAO": null,
    "PAO": "Fonthill Primary School",
    "STREET": "Ascot Road",
    "LOCALITY": "Southmead",
    "TOWN": "Bristol",
    "POSTCODE": "BS10 5SW",
    "UPRN": "000000204429"
   },
   "geometry": {
    "x": 359095,
    "y": 178660
   }
  },
  {
   "attributes": {
    "LOCATION_NAME": "Meadow Vale Community Centre",
    "WARD_CODE": "WGD",
    "SAO": null,
    "PAO": "Meadow Vale Community Centre",
    "STREET": "Meadow Vale",
    "LOCALITY": "St George",
    "TOWN": "Bristol",
    "POSTCODE": "BS5 7RF",
    "UPRN": "000000077329"
   },
   "geometry": {
    "x": 363143,
    "y": 174155
   }
  },
  {
   "attributes": {
    "LOCATION_NAME": "St. Teresa's R.C V.A Primary School",
    "WARD_CODE": "HDA",
    "SAO": null,
    "PAO": "St Teresas Catholic Primary School",
    "STREET": "Luckington Road",
    "LOCALITY": "Southmead",
    "TOWN": "Bristol",
    "POSTCODE": "BS7 0UP",
    "UPRN": "000000011126"
   },
   "geometry": {
    "x": 359169,
    "y": 178105
   }
  },
  {
   "attributes": {
    "LOCATION_NAME": "Bedminster Down Secondary School",
    "WARD_CODE": "BHA",
    "SAO": null,
    "PAO": "Bedminster Down Secondary School",
    "STREET": "Donald Road",
    "LOCALITY": "Bedminster Down",
    "TOWN": "Bristol",
    "POSTCODE": "BS13 7DQ",
    "UPRN": "000000272984"
   },
   "geometry": {
    "x": 356991.21799999999,
    "y": 169337.04599999997
   }
  },
  {
   "attributes": {
    "LOCATION_NAME": "Antona Court (Rear)",
    "WARD_CODE": "AHB",
    "SAO": null,
    "PAO": "Antona Court",
    "STREET": "Antona Drive",
    "LOCALITY": "Shirehampton",
    "TOWN": "Bristol",
    "POSTCODE": "BS11 9RL",
    "UPRN": "000000019571"
   },
   "geometry": {
    "x": 352535,
    "y": 177419
   }
  },
  {
   "attributes": {
    "LOCATION_NAME": "Connaught Primary School",
    "WARD_CODE": "FDA",
    "SAO": null,
    "PAO": "Connaught Primary School",
    "STREET": "Melvin Square",
    "LOCALITY": "Knowle",
    "TOWN": "Bristol",
    "POSTCODE": "BS4 1NH",
    "UPRN": "000000143933"
   },
   "geometry": {
    "x": 359290,
    "y": 169971
   }
  },
  {
   "attributes": {
    "LOCATION_NAME": "St Michael And All Angels Church",
    "WARD_CODE": "WLD",
    "SAO": null,
    "PAO": "St Michael And All Angels Church",
    "STREET": "Vivian Street",
    "LOCALITY": "Windmill Hill",
    "TOWN": "Bristol",
    "POSTCODE": "BS3 4LW",
    "UPRN": "000000298904"
   },
   "geometry": {
    "x": 358983.22700000001,
    "y": 171390.75
   }
  },
  {
   "attributes": {
    "LOCATION_NAME": "St Mary's Vicarage",
    "WARD_CODE": "SBD",
    "SAO": null,
    "PAO": "St Mary's Vicarage",
    "STREET": "Mariners Drive",
    "LOCALITY": "Stoke Bishop",
    "TOWN": "Bristol",
    "POSTCODE": "BS9 1QJ",
    "UPRN": "000000226428"
   },
   "geometry": {
    "x": 355997.77000000002,
    "y": 175474.141
   }
  },
  {
   "attributes": {
    "LOCATION_NAME": "Hungerford Community Centre",
    "WARD_CODE": "WBE",
    "SAO": null,
    "PAO": "Hungerford Community Centre",
    "STREET": "Hungerford Road",
    "LOCALITY": "Brislington",
    "TOWN": "Bristol",
    "POSTCODE": "BS4 5EX",
    "UPRN": "000000145463"
   },
   "geometry": {
    "x": 362314,
    "y": 169864
   }
  },
  {
   "attributes": {
    "LOCATION_NAME": "Easton Business Centre",
    "WARD_CODE": "LHA",
    "SAO": null,
    "PAO": "Easton Business Centre",
    "STREET": "Felix Road",
    "LOCALITY": "Easton",
    "TOWN": "Bristol",
    "POSTCODE": "BS5 0JW",
    "UPRN": "000000085556"
   },
   "geometry": {
    "x": 360672,
    "y": 173832
   }
  },
  {
   "attributes": {
    "LOCATION_NAME": "Christchurch Church Of England Vc Primary School (temporarily relocated from Bristol University Student Union Queens Rd until June 2013)",
    "WARD_CODE": "CED",
    "SAO": null,
    "PAO": "Christchurch Church of England Vc Primary School",
    "STREET": "Royal Park",
    "LOCALITY": "Clifton",
    "TOWN": "Bristol",
    "POSTCODE": "BS8 3AW",
    "UPRN": "000000198459"
   },
   "geometry": {
    "x": 357264,
    "y": 173294
   }
  },
  {
   "attributes": {
    "LOCATION_NAME": "Hope Chapel",
    "WARD_CODE": "CND",
    "SAO": null,
    "PAO": "Hope Chapel",
    "STREET": "Hope Chapel Hill",
    "LOCALITY": "Clifton",
    "TOWN": "Bristol",
    "POSTCODE": "BS8 4ND",
    "UPRN": "000000108740"
   },
   "geometry": {
    "x": 356901,
    "y": 172654
   }
  },
  {
   "attributes": {
    "LOCATION_NAME": "St Johns C.E V.C Primary School",
    "WARD_CODE": "CEA",
    "SAO": null,
    "PAO": "St Johns Church Of England School",
    "STREET": "Worrall Road",
    "LOCALITY": "Clifton",
    "TOWN": "Bristol",
    "POSTCODE": "BS8 2UH",
    "UPRN": "000000067144"
   },
   "geometry": {
    "x": 357307,
    "y": 174613
   }
  },
  {
   "attributes": {
    "LOCATION_NAME": "The Register Office",
    "WARD_CODE": "CTG",
    "SAO": null,
    "PAO": "Register Office",
    "STREET": "Corn Street",
    "LOCALITY": "City Centre",
    "TOWN": "Bristol",
    "POSTCODE": "BS1 1JG",
    "UPRN": "000000272877"
   },
   "geometry": {
    "x": 358867,
    "y": 173053
   }
  },
  {
   "attributes": {
    "LOCATION_NAME": "Trinity United Reformed Church",
    "WARD_CODE": "HZA",
    "SAO": null,
    "PAO": "Henleaze United Reformed Church Hall",
    "STREET": "Waterford Road",
    "LOCALITY": null,
    "TOWN": "Bristol",
    "POSTCODE": "BS9 4BT",
    "UPRN": "000000034531"
   },
   "geometry": {
    "x": 357724,
    "y": 176595
   }
  },
  {
   "attributes": {
    "LOCATION_NAME": "Central Library",
    "WARD_CODE": "CTD",
    "SAO": null,
    "PAO": "Central Library",
    "STREET": "Deanery Road",
    "LOCALITY": "City Centre",
    "TOWN": "Bristol",
    "POSTCODE": "BS1 5TL",
    "UPRN": "000000199356"
   },
   "geometry": {
    "x": 358236,
    "y": 172671
   }
  },
  {
   "attributes": {
    "LOCATION_NAME": "St James Priory",
    "WARD_CODE": "CTC",
    "SAO": null,
    "PAO": "St James Priory",
    "STREET": "Whitson Street",
    "LOCALITY": "Kingsdown",
    "TOWN": "Bristol",
    "POSTCODE": "BS1 3NZ",
    "UPRN": "000000216328"
   },
   "geometry": {
    "x": 358895.57799999998,
    "y": 173467.90600000002
   }
  },
  {
   "attributes": {
    "LOCATION_NAME": "Ebenezer Evangelical Church Hall",
    "WARD_CODE": "HDC",
    "SAO": null,
    "PAO": "286      Ebenezer Evangelica Church Hall",
    "STREET": "Filton Avenue",
    "LOCALITY": "Horfield",
    "TOWN": "Bristol",
    "POSTCODE": "BS7 0BA",
    "UPRN": "000000019712"
   },
   "geometry": {
    "x": 360159,
    "y": 177414
   }
  },
  {
   "attributes": {
    "LOCATION_NAME": "98A Long Cross",
    "WARD_CODE": "AHC",
    "SAO": null,
    "PAO": "98A",
    "STREET": "Long Cross",
    "LOCALITY": "Lawrence Weston",
    "TOWN": "Bristol",
    "POSTCODE": "BS11 0LP",
    "UPRN": "000000324620"
   },
   "geometry": {
    "x": 353719.35200000001,
    "y": 177757.21100000001
   }
  },
  {
   "attributes": {
    "LOCATION_NAME": "Whitchurch Library",
    "WARD_CODE": "HVB",
    "SAO": "Unit 7",
    "PAO": "Whitchurch District Centre",
    "STREET": "Oatlands Avenue",
    "LOCALITY": "Hengrove",
    "TOWN": "Bristol",
    "POSTCODE": "BS14 0SX",
    "UPRN": "000000276047"
   },
   "geometry": {
    "x": 360329,
    "y": 168488
   }
  },
  {
   "attributes": {
    "LOCATION_NAME": "Malcolm X Centre",
    "WARD_CODE": "AYD",
    "SAO": null,
    "PAO": "Malcolm X Centre",
    "STREET": "141 City Road",
    "LOCALITY": "St Pauls",
    "TOWN": "Bristol",
    "POSTCODE": "BS2 8YH",
    "UPRN": "000000079242"
   },
   "geometry": {
    "x": 359513,
    "y": 174165
   }
  },
  {
   "attributes": {
    "LOCATION_NAME": "Wick Road Library",
    "WARD_CODE": "EBD",
    "SAO": null,
    "PAO": "Wick Road Library",
    "STREET": "Wick Road",
    "LOCALITY": "Brislington",
    "TOWN": "Bristol",
    "POSTCODE": "BS4 4HE",
    "UPRN": "000000126038"
   },
   "geometry": {
    "x": 361752.00300000003,
    "y": 171289.00799999997
   }
  },
  {
   "attributes": {
    "LOCATION_NAME": "Horfield Library",
    "WARD_CODE": "LZA",
    "SAO": null,
    "PAO": "Horfield Library",
    "STREET": "Filton Avenue",
    "LOCALITY": "Horfield",
    "TOWN": "Bristol",
    "POSTCODE": "BS7 0BD",
    "UPRN": "000000018539"
   },
   "geometry": {
    "x": 360251,
    "y": 177472
   }
  },
  {
   "attributes": {
    "LOCATION_NAME": "St. Barnabas Church",
    "WARD_CODE": "FDB",
    "SAO": null,
    "PAO": "St Barnabas Knowle Church",
    "STREET": "Daventry Road",
    "LOCALITY": "Knowle",
    "TOWN": "Bristol",
    "POSTCODE": null,
    "UPRN": "000000255845"
   },
   "geometry": {
    "x": 359558,
    "y": 170351
   }
  },
  {
   "attributes": {
    "LOCATION_NAME": "Congregational Church Hall",
    "WARD_CODE": "LHB",
    "SAO": null,
    "PAO": "Stapleton Road Congregational Church",
    "STREET": "Newton Street",
    "LOCALITY": "Easton",
    "TOWN": "Bristol",
    "POSTCODE": "BS5 0QZ",
    "UPRN": "000000092761"
   },
   "geometry": {
    "x": 360112,
    "y": 173595
   }
  },
  {
   "attributes": {
    "LOCATION_NAME": "Greenway Centre",
    "WARD_CODE": "SOC",
    "SAO": null,
    "PAO": "Greenway Centre",
    "STREET": "Doncaster Road",
    "LOCALITY": "Southmead",
    "TOWN": "Bristol",
    "POSTCODE": "BS10 5PY",
    "UPRN": "000000011412"
   },
   "geometry": {
    "x": 357790,
    "y": 178000
   }
  },
  {
   "attributes": {
    "LOCATION_NAME": "Ashley Down Junior School",
    "WARD_CODE": "BSD",
    "SAO": null,
    "PAO": "Ashley Down Junior School",
    "STREET": "Downend Road",
    "LOCALITY": "Horfield",
    "TOWN": "Bristol",
    "POSTCODE": "BS7 9PE",
    "UPRN": "000000039095"
   },
   "geometry": {
    "x": 359505,
    "y": 176256
   }
  },
  {
   "attributes": {
    "LOCATION_NAME": "May Park Primary School",
    "WARD_CODE": "EEC",
    "SAO": null,
    "PAO": "May Park Primary School",
    "STREET": "Coombe Road",
    "LOCALITY": "Eastville",
    "TOWN": "Bristol",
    "POSTCODE": "BS5 6LE",
    "UPRN": "000000062304"
   },
   "geometry": {
    "x": 361361,
    "y": 174880
   }
  },
  {
   "attributes": {
    "LOCATION_NAME": "Cameron Centre",
    "WARD_CODE": "LZB",
    "SAO": null,
    "PAO": "Cameron Centre",
    "STREET": "Cameron Walk",
    "LOCALITY": "Lockleaze",
    "TOWN": "Bristol",
    "POSTCODE": "BS7 9XB",
    "UPRN": "000000278728"
   },
   "geometry": {
    "x": 361101,
    "y": 176982
   }
  },
  {
   "attributes": {
    "LOCATION_NAME": "Luckwell Primary School",
    "WARD_CODE": "BRB",
    "SAO": null,
    "PAO": "Luckwell Primary School",
    "STREET": "Luckwell Road",
    "LOCALITY": "Bedminster",
    "TOWN": "Bristol",
    "POSTCODE": "BS3 3ET",
    "UPRN": "000000129695"
   },
   "geometry": {
    "x": 357503,
    "y": 171111
   }
  },
  {
   "attributes": {
    "LOCATION_NAME": "Hannah More Primary School",
    "WARD_CODE": "LHD",
    "SAO": null,
    "PAO": "Hannah More C E School",
    "STREET": "New Kingsley Road",
    "LOCALITY": "St Philips",
    "TOWN": "Bristol",
    "POSTCODE": "BS2 0LT",
    "UPRN": "000000105366"
   },
   "geometry": {
    "x": 359847,
    "y": 172914
   }
  },
  {
   "attributes": {
    "LOCATION_NAME": "Westbury-on-Trym Library",
    "WARD_CODE": "WTA",
    "SAO": null,
    "PAO": "Westbury Library",
    "STREET": "Falcondale Road",
    "LOCALITY": "Westbury",
    "TOWN": "Bristol",
    "POSTCODE": "BS9 3JZ",
    "UPRN": "000000021923"
   },
   "geometry": {
    "x": 356896,
    "y": 177271
   }
  },
  {
   "attributes": {
    "LOCATION_NAME": "Community Room",
    "WARD_CODE": "HSB",
    "SAO": null,
    "PAO": "2",
    "STREET": "Ledbury Road",
    "LOCALITY": "Fishponds",
    "TOWN": "Bristol",
    "POSTCODE": "BS16 4AF",
    "UPRN": "000000047665"
   },
   "geometry": {
    "x": 364078,
    "y": 175767
   }
  },
  {
   "attributes": {
    "LOCATION_NAME": "St Bartholomew's Church Lower Hall\r\ndsaSt Bartholomew's Church Lower Hall\r\nSt Bartholomew's Church Lower Hall\r\nSt Bartholomew's Church Lower Hall\r\nSt Bartholomew's Church Lower Hall",
    "WARD_CODE": "AYA",
    "SAO": null,
    "PAO": "St Andrews With St Bartholomews Church",
    "STREET": "Maurice Road",
    "LOCALITY": "Montpelier",
    "TOWN": "Bristol",
    "POSTCODE": "BS6 5BT",
    "UPRN": "000000059886"
   },
   "geometry": {
    "x": 359476,
    "y": 175032
   }
  },
  {
   "attributes": {
    "LOCATION_NAME": "Burnbush Primary School",
    "WARD_CODE": "SWD",
    "SAO": null,
    "PAO": "Burnbush School",
    "STREET": "Whittock Road",
    "LOCALITY": "Stockwood",
    "TOWN": "Bristol",
    "POSTCODE": "BS14 8DF",
    "UPRN": "000000159205"
   },
   "geometry": {
    "x": 361716,
    "y": 168411
   }
  },
  {
   "attributes": {
    "LOCATION_NAME": "St. George Library",
    "WARD_CODE": "WGB",
    "SAO": null,
    "PAO": "St George Library",
    "STREET": "Church Road",
    "LOCALITY": "St George",
    "TOWN": "Bristol",
    "POSTCODE": "BS5 8AL",
    "UPRN": "000000091711"
   },
   "geometry": {
    "x": 362291,
    "y": 173650
   }
  },
  {
   "attributes": {
    "LOCATION_NAME": "Clifton Cathedral Apostle Rooms",
    "WARD_CODE": "CNA",
    "SAO": null,
    "PAO": "Clifton Cathedral Church",
    "STREET": "Clifton Park",
    "LOCALITY": "Clifton",
    "TOWN": "Bristol",
    "POSTCODE": "BS8 3BX",
    "UPRN": "000000092873"
   },
   "geometry": {
    "x": 357277,
    "y": 173588
   }
  },
  {
   "attributes": {
    "LOCATION_NAME": "St Werburghs Community Centre",
    "WARD_CODE": "AYC",
    "SAO": null,
    "PAO": "St Werburghs Community Centre",
    "STREET": "Horley Road",
    "LOCALITY": "St Werburghs",
    "TOWN": null,
    "POSTCODE": "BS2 9TJ",
    "UPRN": "000000235496"
   },
   "geometry": {
    "x": 360370,
    "y": 174504
   }
  },
  {
   "attributes": {
    "LOCATION_NAME": "Eden Grove Methodist Church Hall",
    "WARD_CODE": "HDB",
    "SAO": null,
    "PAO": "Eden Grove Methodist Church Hall",
    "STREET": "Eden Grove",
    "LOCALITY": "Horfield",
    "TOWN": "Bristol",
    "POSTCODE": "BS7 0PQ",
    "UPRN": "000000278822"
   },
   "geometry": {
    "x": 360016,
    "y": 178115
   }
  },
  {
   "attributes": {
    "LOCATION_NAME": "Little Hayes Nursery and Childrens Centre",
    "WARD_CODE": "FVC",
    "SAO": null,
    "PAO": "Little Hayes Nursery and Childrens Centre",
    "STREET": "Frenchay Road",
    "LOCALITY": "Oldbury Court",
    "TOWN": "Bristol",
    "POSTCODE": "BS16 2QS",
    "UPRN": "0000000273240"
   },
   "geometry": {
    "x": 364250.57699999999,
    "y": 177050.19300000003
   }
  },
  {
   "attributes": {
    "LOCATION_NAME": "Stoke Park School",
    "WARD_CODE": "LZC",
    "SAO": null,
    "PAO": "Lockleaze Primary School",
    "STREET": "Brangwyn Grove",
    "LOCALITY": "Lockleaze",
    "TOWN": "Bristol",
    "POSTCODE": "BS7 9BY",
    "UPRN": "000000206843"
   },
   "geometry": {
    "x": 360886.66700000002,
    "y": 176660.82199999999
   }
  },
  {
   "attributes": {
    "LOCATION_NAME": "St Michaels Church Centre",
    "WARD_CODE": "BSB",
    "SAO": null,
    "PAO": "St Michaels Church Centre",
    "STREET": "160a Gloucester Road",
    "LOCALITY": "Bishopston",
    "TOWN": "Bristol",
    "POSTCODE": "BS7 8NT",
    "UPRN": "000000308693"
   },
   "geometry": {
    "x": 359102,
    "y": 175548
   }
  },
  {
   "attributes": {
    "LOCATION_NAME": "Horfield Methodist Church Hall",
    "WARD_CODE": "HDE",
    "SAO": null,
    "PAO": "Horfield Methodist Church Hall",
    "STREET": "Churchways Avenue",
    "LOCALITY": "Horfield",
    "TOWN": "Bristol",
    "POSTCODE": "BS7 8SN",
    "UPRN": "000000184119"
   },
   "geometry": {
    "x": 359417,
    "y": 176576
   }
  },
  {
   "attributes": {
    "LOCATION_NAME": "237  239 Fulford Family Centre",
    "WARD_CODE": "HEC",
    "SAO": null,
    "PAO": "237  239 Fulford Family Centre",
    "STREET": "Gatehouse Avenue",
    "LOCALITY": "Hartcliffe",
    "TOWN": "Bristol",
    "POSTCODE": "BS13 9AQ",
    "UPRN": "000000160684"
   },
   "geometry": {
    "x": 357575,
    "y": 168308
   }
  },
  {
   "attributes": {
    "LOCATION_NAME": "Parish Centre, St Edyth's Church",
    "WARD_CODE": "KND",
    "SAO": null,
    "PAO": "St Edyths Church",
    "STREET": "Avonleaze",
    "LOCALITY": "Sea Mills",
    "TOWN": "Bristol",
    "POSTCODE": "BS9 2HU",
    "UPRN": "000000278823"
   },
   "geometry": {
    "x": 354926,
    "y": 176441
   }
  },
  {
   "attributes": {
    "LOCATION_NAME": "Former Fishponds Library",
    "WARD_CODE": "FVB",
    "SAO": null,
    "PAO": "Former Fishponds Library",
    "STREET": "Fishponds Road",
    "LOCALITY": "Eastville",
    "TOWN": "Bristol",
    "POSTCODE": "BS16 3UH",
    "UPRN": "000000258612"
   },
   "geometry": {
    "x": 363064.13699999999,
    "y": 175703.13500000001
   }
  },
  {
   "attributes": {
    "LOCATION_NAME": "Portacabin, Dundridge Playing Field Car Park",
    "WARD_CODE": "EGC",
    "SAO": "Pavillion",
    "PAO": "Dundridge Lane",
    "STREET": "Dundridge Lane",
    "LOCALITY": "St George East",
    "TOWN": "Bristol",
    "POSTCODE": "BS5 8SW",
    "UPRN": null
   },
   "geometry": {
    "x": 363377.59600000002,
    "y": 172489.19199999998
   }
  },
  {
   "attributes": {
    "LOCATION_NAME": "The Church of God of Prophecy Hall",
    "WARD_CODE": "ENA",
    "SAO": null,
    "PAO": "The Church Of God Of Prophecy",
    "STREET": "Tudor Road",
    "LOCALITY": "Easton",
    "TOWN": "Bristol",
    "POSTCODE": "BS5 6BW",
    "UPRN": "000000278650"
   },
   "geometry": {
    "x": 361139,
    "y": 174273
   }
  },
  {
   "attributes": {
    "LOCATION_NAME": "St Francis Church Hall",
    "WARD_CODE": "SEA",
    "SAO": null,
    "PAO": "St Francis Church",
    "STREET": "St Francis Road",
    "LOCALITY": "Ashton",
    "TOWN": "Bristol",
    "POSTCODE": null,
    "UPRN": "000000278652"
   },
   "geometry": {
    "x": 357367,
    "y": 171660
   }
  },
  {
   "attributes": {
    "LOCATION_NAME": "Cheddar Grove Primary School",
    "WARD_CODE": "BHB",
    "SAO": null,
    "PAO": "Cheddar Grove Primary School",
    "STREET": "Cheddar Grove",
    "LOCALITY": "Bishopsworth",
    "TOWN": "Bristol",
    "POSTCODE": "BS13 7EN",
    "UPRN": "000000147479"
   },
   "geometry": {
    "x": 357263,
    "y": 169681
   }
  }
 ]
}